{
  "type": "FeatureCollection",
  "features": [
    {
      "type": "Feature",
      "geometry": {
        "type": "Point",
        "coordinates": [
          10.753807,
          54.187646
        ]
      },
      "properties": {
        "zipCity": "23744 Schönwalde am Bungsberg",
        "name": "Holsteiner Energieversorgungs GmbH",
        "street": "Eutiner Straße 99",
        "chargingPoints": "2",
        "type": "AC",
        "plug": "Typ-2 / Typ-2",
        "power": "22kW / 22kW",
        "availability": "24 Stunden zugänglich"
      }
    },
    {
      "type": "Feature",
      "geometry": {
        "type": "Point",
        "coordinates": [
          10.48643,
          54.090144
        ]
      },
      "properties": {
        "zipCity": "23715 Bosau/Hutzfeld",
        "name": "Holsteiner Energieversorgungs GmbH",
        "street": "Hauptstraße 2a",
        "chargingPoints": "2",
        "type": "AC",
        "plug": "Typ-2 / Typ-2",
        "power": "22kW / 22kW",
        "availability": "24 Stunden zugänglich"
      }
    },
    {
      "type": "Feature",
      "geometry": {
        "type": "Point",
        "coordinates": [
          10.556858,
          54.172298
        ]
      },
      "properties": {
        "zipCity": "23714 Malente",
        "name": "Holsteiner Energieversorgungs GmbH",
        "street": "Bahnhofstraße",
        "chargingPoints": "2",
        "type": "AC",
        "plug": "Typ-2 / Typ-2",
        "power": "22kW / 22kW",
        "availability": "24 Stunden zugänglich"
      }
    },
    {
      "type": "Feature",
      "geometry": {
        "type": "Point",
        "coordinates": [
          10.615896,
          54.130451
        ]
      },
      "properties": {
        "zipCity": "23701 Eutin",
        "name": "Holsteiner Energieversorgungs GmbH",
        "street": "Weidestraße 36",
        "chargingPoints": "2",
        "type": "AC",
        "plug": "Typ-2 / Typ-2",
        "power": "22kW / 22kW",
        "availability": "24 Stunden zugänglich"
      }
    },
    {
      "type": "Feature",
      "geometry": {
        "type": "Point",
        "coordinates": [
          10.716282,
          54.077062
        ]
      },
      "properties": {
        "zipCity": "23701 Süsel",
        "name": "Holsteiner Energieversorgungs GmbH",
        "street": "Pastor-Dr.-Fuchs-Weg 1",
        "chargingPoints": "2",
        "type": "AC",
        "plug": "Typ-2 / Typ-2",
        "power": "22kW / 22kW",
        "availability": "24 Stunden zugänglich"
      }
    },
    {
      "type": "Feature",
      "geometry": {
        "type": "Point",
        "coordinates": [
          10.778642,
          54.071558
        ]
      },
      "properties": {
        "zipCity": "23730 Sierksdorf",
        "name": "Holsteiner Energieversorgungs GmbH",
        "street": "Am Fahrenkrog 1-2",
        "chargingPoints": "2",
        "type": "AC",
        "plug": "Typ-2 / Typ-2",
        "power": "22kW / 22kW",
        "availability": "24 Stunden zugänglich"
      }
    },
    {
      "type": "Feature",
      "geometry": {
        "type": "Point",
        "coordinates": [
          10.572616,
          54.012848
        ]
      },
      "properties": {
        "zipCity": "23623 Ahrensbök",
        "name": "Holsteiner Energieversorgungs GmbH",
        "street": "Poststraße 2",
        "chargingPoints": "2",
        "type": "AC",
        "plug": "Typ-2 / Typ-2",
        "power": "22kW / 22kW",
        "availability": "24 Stunden zugänglich"
      }
    },
    {
      "type": "Feature",
      "geometry": {
        "type": "Point",
        "coordinates": [
          10.427903,
          54.105376
        ]
      },
      "properties": {
        "zipCity": "23715 Bosau/Hutzfeld",
        "name": "Holsteiner Energieversorgungs GmbH",
        "street": "Bischof-Vicelin-Damm 9",
        "chargingPoints": "2",
        "type": "AC",
        "plug": "Typ-2 / Typ-2",
        "power": "22kW / 22kW",
        "availability": "24 Stunden zugänglich"
      }
    },
    {
      "type": "Feature",
      "geometry": {
        "type": "Point",
        "coordinates": [
          10.613602,
          54.142127
        ]
      },
      "properties": {
        "zipCity": "23701 Eutin",
        "name": "Holsteiner Energieversorgungs GmbH",
        "street": "Riemannstraße 46",
        "chargingPoints": "2",
        "type": "AC",
        "plug": "Typ-2 / Typ-2",
        "power": "22kW / 22kW",
        "availability": "24 Stunden zugänglich"
      }
    },
    {
      "type": "Feature",
      "geometry": {
        "type": "Point",
        "coordinates": [
          10.609346,
          54.135201
        ]
      },
      "properties": {
        "zipCity": "23701 Eutin",
        "name": "Holsteiner Energieversorgungs GmbH",
        "street": "Elisabethstraße 20",
        "chargingPoints": "2",
        "type": "AC",
        "plug": "Typ-2 / Typ-2",
        "power": "22kW / 22kW",
        "availability": "24 Stunden zugänglich"
      }
    },
    {
      "type": "Feature",
      "geometry": {
        "type": "Point",
        "coordinates": [
          10.619812,
          54.138433
        ]
      },
      "properties": {
        "zipCity": "23701 Eutin",
        "name": "Holsteiner Energieversorgungs GmbH",
        "street": "Schloßplatz 5",
        "chargingPoints": "2",
        "type": "AC",
        "plug": "Typ-2 / Typ-2",
        "power": "22kW / 22kW",
        "availability": "24 Stunden zugänglich"
      }
    },
    {
      "type": "Feature",
      "geometry": {
        "type": "Point",
        "coordinates": [
          10.61242,
          54.142072
        ]
      },
      "properties": {
        "zipCity": "23701 Eutin",
        "name": "Holsteiner Energieversorgungs GmbH",
        "street": "Holstenstraße 2",
        "chargingPoints": "2",
        "type": "AC",
        "plug": "Typ-2 / Typ-2",
        "power": "22kW / 22kW",
        "availability": "24 Stunden zugänglich"
      }
    },
    {
      "type": "Feature",
      "geometry": {
        "type": "Point",
        "coordinates": [
          10.616106,
          54.134956
        ]
      },
      "properties": {
        "zipCity": "23701 Eutin",
        "name": "Holsteiner Energieversorgungs GmbH",
        "street": "Segenhörn 1",
        "chargingPoints": "2",
        "type": "AC",
        "plug": "Typ-2 / Typ-2",
        "power": "22kW / 22kW",
        "availability": "24 Stunden zugänglich"
      }
    },
    {
      "type": "Feature",
      "geometry": {
        "type": "Point",
        "coordinates": [
          10.616356,
          54.140162
        ]
      },
      "properties": {
        "zipCity": "23701 Eutin",
        "name": "Holsteiner Energieversorgungs GmbH",
        "street": "Bleekergang 1a",
        "chargingPoints": "2",
        "type": "AC",
        "plug": "Typ-2 / Typ-2",
        "power": "22kW / 22kW",
        "availability": "24 Stunden zugänglich"
      }
    },
    {
      "type": "Feature",
      "geometry": {
        "type": "Point",
        "coordinates": [
          10.635875,
          54.12348
        ]
      },
      "properties": {
        "zipCity": "23701 Eutin",
        "name": "Holsteiner Energieversorgungs GmbH",
        "street": "Röntgenstraße 1",
        "chargingPoints": "2",
        "type": "AC",
        "plug": "Typ-2 / Typ-2",
        "power": "22kW / 22kW",
        "availability": "24 Stunden zugänglich"
      }
    },
    {
      "type": "Feature",
      "geometry": {
        "type": "Point",
        "coordinates": [
          10.614942,
          54.136649
        ]
      },
      "properties": {
        "zipCity": "23701 Eutin",
        "name": "Holsteiner Energieversorgungs GmbH",
        "street": "Am Stadtgraben 6",
        "chargingPoints": "2",
        "type": "AC",
        "plug": "Typ-2 / Typ-2",
        "power": "22kW / 22kW",
        "availability": "24 Stunden zugänglich"
      }
    },
    {
      "type": "Feature",
      "geometry": {
        "type": "Point",
        "coordinates": [
          10.494438,
          54.198138
        ]
      },
      "properties": {
        "zipCity": "24329 Grebien",
        "name": "Stadtwerke Eutin GmbH",
        "street": "Dorfstraße 24",
        "chargingPoints": "2",
        "type": "AC",
        "plug": "Typ-2 / Typ-2",
        "power": "11kW / 11kW",
        "availability": "24 Stunden zugänglich"
      }
    },
    {
      "type": "Feature",
      "geometry": {
        "type": "Point",
        "coordinates": [
          10.421061,
          54.159088
        ]
      },
      "properties": {
        "zipCity": "24306 Plön",
        "name": "Stadtwerke Plön Versorgungs GmbH",
        "street": "Bahnhofstraße 3",
        "chargingPoints": "2",
        "type": "AC",
        "plug": "Typ-2 / Typ-2",
        "power": "22kW / 22kW",
        "availability": "24 Stunden zugänglich"
      }
    },
    {
      "type": "Feature",
      "geometry": {
        "type": "Point",
        "coordinates": [
          10.445489,
          54.159342
        ]
      },
      "properties": {
        "zipCity": "24306 Plön",
        "name": "Stadtwerke Plön Versorgungs GmbH",
        "street": "Ulmenstraße 25",
        "chargingPoints": "2",
        "type": "AC",
        "plug": "Typ-2 / Typ-2",
        "power": "22kW / 22kW",
        "availability": "24 Stunden zugänglich"
      }
    },
    {
      "type": "Feature",
      "geometry": {
        "type": "Point",
        "coordinates": [
          10.447979,
          54.15812
        ]
      },
      "properties": {
        "zipCity": "24306 Plön",
        "name": "Stadtwerke Plön Versorgungs GmbH",
        "street": "Breslauer Straße 2",
        "chargingPoints": "2",
        "type": "AC",
        "plug": "Typ-2 / Typ-2",
        "power": "22kW / 22kW",
        "availability": "24 Stunden zugänglich"
      }
    },
    {
      "type": "Feature",
      "geometry": {
        "type": "Point",
        "coordinates": [
          10.41753,
          54.15929
        ]
      },
      "properties": {
        "zipCity": "24306 Plön",
        "name": "Stadtwerke Plön Versorgungs GmbH",
        "street": "Stadtgrabenstraße 10",
        "chargingPoints": "2",
        "type": "AC",
        "plug": "Typ-2 / Typ-2",
        "power": "22kW / 22kW",
        "availability": "24 Stunden zugänglich"
      }
    },
    {
      "type": "Feature",
      "geometry": {
        "type": "Point",
        "coordinates": [
          10.417606,
          54.159193
        ]
      },
      "properties": {
        "zipCity": "24306 Plön",
        "name": "Stadtwerke Plön Versorgungs GmbH",
        "street": "Stadtgrabenstraße 10",
        "chargingPoints": "2",
        "type": "AC",
        "plug": "Typ-2 / Typ-2",
        "power": "22kW / 22kW",
        "availability": "24 Stunden zugänglich"
      }
    },
    {
      "type": "Feature",
      "geometry": {
        "type": "Point",
        "coordinates": [
          10.879931,
          54.282153
        ]
      },
      "properties": {
        "zipCity": "23758 Oldenburg in Holstein",
        "name": "Stadtwerke Oldenburg in Holstein GmbH",
        "street": "Neustädter Straße 28",
        "chargingPoints": "2",
        "type": "AC",
        "plug": "Typ-2 / Typ-2",
        "power": "22kW / 22kW",
        "availability": "24 Stunden zugänglich"
      }
    },
    {
      "type": "Feature",
      "geometry": {
        "type": "Point",
        "coordinates": [
          10.88792,
          54.2933
        ]
      },
      "properties": {
        "zipCity": "23758 Oldenburg in Holstein",
        "name": "Stadtwerke Oldenburg in Holstein GmbH",
        "street": "Hopfenmarkt 3",
        "chargingPoints": "2",
        "type": "AC",
        "plug": "Typ-2 / Typ-2",
        "power": "22kW / 22kW",
        "availability": "24 Stunden zugänglich"
      }
    },
    {
      "type": "Feature",
      "geometry": {
        "type": "Point",
        "coordinates": [
          10.8902,
          54.2918
        ]
      },
      "properties": {
        "zipCity": "23758 Oldenburg in Holstein",
        "name": "Stadtwerke Oldenburg in Holstein GmbH",
        "street": "Schauenburger Platz 1",
        "chargingPoints": "2",
        "type": "AC",
        "plug": "Typ-2 / Typ-2",
        "power": "22kW / 22kW",
        "availability": "24 Stunden zugänglich"
      }
    },
    {
      "type": "Feature",
      "geometry": {
        "type": "Point",
        "coordinates": [
          10.88792,
          54.28709
        ]
      },
      "properties": {
        "zipCity": "23758 Oldenburg in Holstein",
        "name": "Stadtwerke Oldenburg in Holstein GmbH",
        "street": "Kieler Chaussee 2a",
        "chargingPoints": "2",
        "type": "AC",
        "plug": "Typ-2 / Typ-2",
        "power": "22kW / 22kW",
        "availability": "24 Stunden zugänglich"
      }
    },
    {
      "type": "Feature",
      "geometry": {
        "type": "Point",
        "coordinates": [
          10.3401993,
          54.1482199
        ]
      },
      "properties": {
        "zipCity": "24326 Ascheberg",
        "name": "Stadtwerke Plön Versorgungs GmbH",
        "street": "Bahnhofstraße 8",
        "chargingPoints": "2",
        "type": "AC",
        "plug": "Typ-2 / Typ-2",
        "power": "22kW / 22kW",
        "availability": "24 Stunden zugänglich"
      }
    },
    {
      "type": "Feature",
      "geometry": {
        "type": "Point",
        "coordinates": [
          10.3416145,
          54.1509292
        ]
      },
      "properties": {
        "zipCity": "24326 Ascheberg",
        "name": "Stadtwerke Plön Versorgungs GmbH",
        "street": "Langenrade 20",
        "chargingPoints": "2",
        "type": "AC",
        "plug": "Typ-2 / Typ-2",
        "power": "22kW / 22kW",
        "availability": "24 Stunden zugänglich"
      }
    },
    {
      "type": "Feature",
      "geometry": {
        "type": "Point",
        "coordinates": [
          10.2752621,
          54.2239342
        ]
      },
      "properties": {
        "zipCity": "24211 Preetz",
        "name": "Stadtwerke Plön Versorgungs GmbH",
        "street": "Kührener Str. 83",
        "chargingPoints": "2",
        "type": "AC",
        "plug": "Typ-2 / Typ-2",
        "power": "22kW / 22kW",
        "availability": "24 Stunden zugänglich"
      }
    },
    {
      "type": "Feature",
      "geometry": {
        "type": "Point",
        "coordinates": [
          10.2773291,
          54.2456706
        ]
      },
      "properties": {
        "zipCity": "24211 Preetz",
        "name": "Stadtwerke Plön Versorgungs GmbH",
        "street": "Kieler Str. 36",
        "chargingPoints": "2",
        "type": "AC",
        "plug": "Typ-2 / Typ-2",
        "power": "22kW / 22kW",
        "availability": "24 Stunden zugänglich"
      }
    },
    {
      "type": "Feature",
      "geometry": {
        "type": "Point",
        "coordinates": [
          10.4084377,
          54.155655
        ]
      },
      "properties": {
        "zipCity": "24306 Plön",
        "name": "Stadtwerke Plön Versorgungs GmbH",
        "street": "Hamburgerstr. 17/18",
        "chargingPoints": "2",
        "type": "AC",
        "plug": "Typ-2 / Typ-2",
        "power": "22kW / 22kW",
        "availability": "24 Stunden zugänglich"
      }
    }
  ]
}
